[
  {
    "title": "Nanjing Techweek IoT Summit",
    "location": {
      "city": "Nanjing",
      "state": "",
      "country": "CN",
      "address": "",
      "address2": "",
      "zipcode": ""
    },
    "start": 1561593008,
    "end": 1561938608,
    "website": "https://nanjingtechweek.com/introduction/",
    "isAttendee": 0,
    "isSponsor": 0,
    "isSpeaker": 1,
    "image": ""
  },
  {
    "title": "MWC Shanghai",
    "location": {
      "city": "Shanghai",
      "state": "",
      "country": "CN",
      "address": "",
      "address2": "",
      "zipcode": ""
    },
    "start": 1561585402,
    "end": 1561758202,
    "website": "https://www.mwcshanghai.com",
    "isAttendee": 1,
    "isSponsor": 0,
    "isSpeaker": 0,
    "image": ""
  },
  {
    "title": "CES Asia 2019",
    "location": {
      "city": "Shanghai",
      "state": "",
      "country": "CN",
      "address": "",
      "address2": "",
      "zipcode": ""
    },
    "start": 1560203002,
    "end": 1560462202,
    "website": "http://www.cesasia.cn/",
    "isAttendee": 1,
    "isSponsor": 0,
    "isSpeaker": 0,
    "image": ""
  },
  {
    "title": "IOHK Summit",
    "location": {
      "city": "Miami",
      "state": "FL",
      "country": "USA",
      "address": "",
      "address2": "",
      "zipcode": ""
    },
    "start": 1555504259,
    "website": "https://iohksummit.io/agenda/",
    "isAttendee": 1,
    "isSponsor": 0,
    "isSpeaker": 1,
    "image": ""
  },
  {
    "title": "Crypto Mining Conference",
    "location": {
      "city": "Vancouver BC",
      "state": "",
      "country": "CA",
      "address": "",
      "address2": "",
      "zipcode": ""
    },
    "start": 1552396363,
    "website": "http://mpwrsummit.com/",
    "isAttendee": 1,
    "isSponsor": 0,
    "isSpeaker": 0,
    "image": ""
  },
  {
    "title": "The Blockchain Event",
    "location": {
      "city": "Fort Lauderdale",
      "state": "FL",
      "country": "USA",
      "address": "",
      "address2": "",
      "zipcode": ""
    },
    "start": 1548861162,
    "end": 1549044762,
    "website": "https://www.theblockchainevent.com/east/",
    "isAttendee": 1,
    "isSponsor": 0,
    "isSpeaker": 1,
    "image": ""
  },
  {
    "title": "Seattle Identity & Security Meetup",
    "location": {
      "city": "Seattle",
      "state": "WA",
      "country": "USA",
      "address": "2101 4th Ave",
      "address2": "",
      "zipcode": "98121"
    },
    "start": 1547604000,
    "website": "https://www.meetup.com/Seattle-Identity-and-Security-Meetup/",
    "isAttendee": 1,
    "isSponsor": 0,
    "isSpeaker": 1,
    "image": ""
  },
  {
    "title": "Blockchainge DC 2019",
    "location": {
      "city": "Washington D.C.",
      "state": "",
      "country": "USA",
      "address": "",
      "address2": "",
      "zipcode": ""
    },
    "start": 1547406000,
    "end": 1547578800,
    "website": "https://www.blockchaingedc.com",
    "isAttendee": 0,
    "isSponsor": 0,
    "isSpeaker": 1,
    "image": ""
  },
  {
    "title": "New Tech Eastside",
    "location": {
      "city": "Bellevue",
      "state": "",
      "country": "WA",
      "address": "",
      "address2": "",
      "zipcode": ""
    },
    "start": 1543914000,
    "website": "https://www.newtechnorthwest.com/",
    "isAttendee": 1,
    "isSponsor": 0,
    "isSpeaker": 1,
    "image": ""
  },
  {
    "title": "Connectivity is the Revolution Forum 2018",
    "location": {
      "city": "Washington D.C.",
      "state": "",
      "country": "USA",
      "address": "",
      "address2": "",
      "zipcode": ""
    },
    "start": 1543953600,
    "website": "http://geekswf.org/events/connectivity-revolution-summit-2018/",
    "isAttendee": 1,
    "isSponsor": 0,
    "isSpeaker": 1,
    "image": ""
  },
  {
    "title": "Decentralized",
    "location": {
      "city": "Athens",
      "state": "",
      "country": "Greece",
      "address": "",
      "address2": "",
      "zipcode": ""
    },
    "start": 1542401645,
    "website": "https://www.decentralized.com",
    "isAttendee": 1,
    "isSponsor": 0,
    "isSpeaker": 0,
    "image": ""
  },
  {
    "title": "The Digital Money Forum at CES",
    "location": {
      "city": "Las Vegas",
      "state": "NV",
      "country": "USA",
      "address": "",
      "address2": "",
      "zipcode": ""
    },
    "start": 1546980845,
    "end": 1547240045,
    "website": "https://thedigitalmoneyforum.com",
    "isAttendee": 1,
    "isSponsor": 1,
    "isSpeaker": 1,
    "image": ""
  },
  {
    "title": "CryptoBlockCon",
    "location": {
      "city": "Las Vegas",
      "state": "NV",
      "country": "USA",
      "address": "",
      "address2": "",
      "zipcode": ""
    },
    "start": 1544511600,
    "end": 1544598000,
    "website": "http://www.cryptoblockcon.com/",
    "isAttendee": 0,
    "isSponsor": 0,
    "isSpeaker": 1,
    "image": "cryptoblockcon.png"
  },
  {
    "title": "Trustonic Security + Trust Summit",
    "location": {
      "city": "New York",
      "state": "NY",
      "country": "USA",
      "address": "",
      "address2": "",
      "zipcode": ""
    },
    "start": 1541610000,
    "website": "https://www.eventbrite.co.uk/e/trustonic-security-trust-summit-tickets-49687276983",
    "isAttendee": 1,
    "isSponsor": 0,
    "isSpeaker": 0,
    "image": ""
  },
  {
    "title": "CyberSecurity International Symposium",
    "location": {
      "city": "Chicago",
      "state": "IL",
      "country": "USA",
      "address": "",
      "address2": "",
      "zipcode": ""
    },
    "start": 1542128400,
    "end": 1542214800,
    "website": "http://www.cybersecurity-symposium.com/",
    "isAttendee": 1,
    "isSponsor": 0,
    "isSpeaker": 1,
    "image": ""
  },
  {
    "title": "Fund Focus 2018",
    "location": {
      "city": "Grand Cayman",
      "state": "",
      "country": "Cayman Islands",
      "address": "",
      "address2": "",
      "zipcode": ""
    },
    "start": 1541174400,
    "website": "https://www.campbellslegal.com/fundfocus/",
    "isAttendee": 1,
    "isSponsor": 0,
    "isSpeaker": 1,
    "image": ""
  },
  {
    "title": "Malta Blockchain Summit",
    "location": {
      "city": "St. Julian's",
      "state": "",
      "country": "Malta",
      "address": "",
      "address2": "",
      "zipcode": ""
    },
    "start": 1541088000,
    "end": 1541174400,
    "website": "https://maltablockchainsummit.com",
    "isAttendee": 1,
    "isSponsor": 0,
    "isSpeaker": 0,
    "image": ""
  },
  {
    "title": "Symposium on Securing the IoT",
    "location": {
      "city": "Natick",
      "state": "MA",
      "country": "USA",
      "address": "",
      "address2": "",
      "zipcode": ""
    },
    "start": 1540828800,
    "end": 1541001600,
    "website": "https://www.securingthenet.com",
    "isAttendee": 1,
    "isSponsor": 1,
    "isSpeaker": 1,
    "image": ""
  },
  {
    "title": "Texas Bitcoin",
    "location": {
      "city": "Austin",
      "state": "TX",
      "country": "USA",
      "address": "",
      "address2": "",
      "zipcode": ""
    },
    "start": 1540656000,
    "end": 1540742400,
    "website": "https://texasbitcoinconference.com",
    "isAttendee": 1,
    "isSponsor": 1,
    "isSpeaker": 1,
    "image": ""
  },
  {
    "title": "NYIT: Annual Cybersecurity Conference",
    "location": {
      "city": "New York",
      "state": "NY",
      "country": "USA",
      "address": "NYIT",
      "address2": "1871 Broadway",
      "zipcode": ""
    },
    "start": 1538071200,
    "website": "https://www.nyit.edu/events/annual_cybersecurity_conference",
    "isAttendee": 1,
    "isSponsor": 0,
    "isSpeaker": 0,
    "image": ""
  },
  {
    "title": "Qualcomm 4G/5G Summit",
    "location": {
      "city": "Hong Kong",
      "state": "",
      "country": "",
      "address": "",
      "address2": "",
      "zipcode": ""
    },
    "start": 1540231200,
    "end": 1540404000,
    "website": "http://4g5gsummit.qualcomm.com",
    "isAttendee": 1,
    "isSponsor": 0,
    "isSpeaker": 0,
    "image": ""
  },
  {
    "title": "Loyalty Live",
    "location": {
      "city": "Chicago",
      "state": "IL",
      "country": "USA",
      "address": "",
      "address2": "",
      "zipcode": ""
    },
    "start": 1539712800,
    "end": 1539885600,
    "website": "https://www.loyaltylive.com/",
    "isAttendee": 1,
    "isSponsor": 0,
    "isSpeaker": 1,
    "image": ""
  },
  {
    "title": "Blockchain Shift",
    "location": {
      "city": "Miami",
      "state": "FL",
      "country": "USA",
      "address": "",
      "address2": "",
      "zipcode": ""
    },
    "start": 1539288000,
    "end": 1539374400,
    "website": "https://blockchainshift.io",
    "isAttendee": 1,
    "isSponsor": 1,
    "isSpeaker": 0,
    "image": ""
  },
  {
    "title": "HoshoCon",
    "location": {
      "city": "Las Vegas",
      "state": "NV",
      "country": "USA",
      "address": "",
      "address2": "",
      "zipcode": ""
    },
    "start": 1539115200,
    "end": 1539374400,
    "website": "https://www.hoshocon.com",
    "isAttendee": 1,
    "isSponsor": 1,
    "isSpeaker": 1,
    "image": ""
  },
  {
    "title": "Block World",
    "location": {
      "city": "San Jose",
      "state": "CA",
      "country": "USA",
      "address": "",
      "address2": "",
      "zipcode": ""
    },
    "start": 1536955200,
    "website": "http://block-world.com",
    "isAttendee": 1,
    "isSponsor": 1,
    "isSpeaker": 1,
    "image": ""
  },
  {
    "title": "Global Cloud & Blockchain Summit",
    "location": {
      "city": "Toronto",
      "state": "",
      "country": "Canada",
      "address": "Westin Harbour Castle Hotel",
      "address2": "",
      "zipcode": ""
    },
    "start": 1534183200,
    "end": 1534269600,
    "website": "https://gcbsummit.com/",
    "isAttendee": 1,
    "isSponsor": 0,
    "isSpeaker": 1,
    "image": "global-cloud-blockchain-summit.png"
  },
  {
    "title": "CoinAgenda",
    "location": {
      "city": "Las Vegas",
      "state": "NV",
      "country": "USA",
      "address": "",
      "address2": "",
      "zipcode": ""
    },
    "start": 1540317600,
    "end": 1540490400,
    "website": "http://www.coinagenda.com/",
    "isAttendee": 1,
    "isSponsor": 1,
    "isSpeaker": 1,
    "image": "coinagenda.png"
  },
  {
    "title": "FSI Transformational Assembly: Blockchain ",
    "location": {
      "city": "Charlotte",
      "state": "NC",
      "country": "USA",
      "address": "",
      "address2": "",
      "zipcode": ""
    },
    "start": 1541710800,
    "end": 1541797200,
    "website": "",
    "isAttendee": 1,
    "isSponsor": 1,
    "isSpeaker": 1,
    "image": ""
  },
  {
    "title": "SINET",
    "location": {
      "city": "Washington",
      "state": "DC",
      "country": "USA",
      "address": "",
      "address2": "",
      "zipcode": ""
    },
    "start": 1541624400,
    "website": "",
    "isAttendee": 0,
    "isSponsor": 1,
    "isSpeaker": 0,
    "image": ""
  },
  {
    "title": "Telefonica Security Innovation Day",
    "location": {
      "city": "Madrid",
      "state": "",
      "country": "Spain",
      "address": "",
      "address2": "",
      "zipcode": ""
    },
    "start": 1541624400,
    "website": "",
    "isAttendee": 0,
    "isSponsor": 1,
    "isSpeaker": 0,
    "image": ""
  },
  {
    "title": "IoT Blockchain Summit",
    "location": {
      "city": "Atlanta",
      "state": "GA",
      "country": "USA",
      "address": "",
      "address2": "",
      "zipcode": ""
    },
    "start": 1540843200,
    "end": 1540929600,
    "website": "",
    "isAttendee": 1,
    "isSponsor": 0,
    "isSpeaker": 0,
    "image": ""
  },
  {
    "title": "Money20/20 USA",
    "location": {
      "city": "Las Vegas",
      "state": "NV",
      "country": "USA",
      "address": "",
      "address2": "",
      "zipcode": ""
    },
    "start": 1540152000,
    "end": 1540411200,
    "website": "",
    "isAttendee": 1,
    "isSponsor": 1,
    "isSpeaker": 0,
    "image": ""
  },
  {
    "title": "Telefonica Global Security Summit",
    "location": {
      "city": "Madrid",
      "state": "",
      "country": "Spain",
      "address": "",
      "address2": "",
      "zipcode": ""
    },
    "start": 1537809317,
    "end": 1538068517,
    "website": "",
    "isAttendee": 1,
    "isSponsor": 1,
    "isSpeaker": 0,
    "image": ""
  },
  {
    "title": "MWC/4YFN",
    "location": {
      "city": "Los Angeles",
      "state": "CA",
      "country": "USA",
      "address": "",
      "address2": "",
      "zipcode": ""
    },
    "start": 1536758117,
    "end": 1536945317,
    "website": "",
    "isAttendee": 1,
    "isSponsor": 1,
    "isSpeaker": 1,
    "image": ""
  },
  {
    "title": "2018 International Summit MVNO",
    "location": {
      "city": "Beijing",
      "state": "",
      "country": "China",
      "address": "",
      "address2": "",
      "zipcode": ""
    },
    "start": 1533758400,
    "end": 1533844800,
    "website": "",
    "isAttendee": 1,
    "isSponsor": 0,
    "isSpeaker": 0,
    "image": ""
  },
  {
    "title": "Opal Group Cybersecurity & Financial Payments Conf",
    "location": {
      "city": "Newport",
      "state": "RI",
      "country": "USA",
      "address": "",
      "address2": "",
      "zipcode": ""
    },
    "start": 1532030400,
    "end": 1532116800,
    "website": "",
    "isAttendee": 1,
    "isSponsor": 0,
    "isSpeaker": 0,
    "image": ""
  },
  {
    "title": "Draper Pitch Day",
    "location": {
      "city": "San Mateo",
      "state": "CA",
      "country": "USA",
      "address": "",
      "address2": "",
      "zipcode": ""
    },
    "start": 1531944000,
    "website": "",
    "isAttendee": 0,
    "isSponsor": 0,
    "isSpeaker": 1,
    "image": ""
  },
  {
    "title": "Building on Bitcoin",
    "location": {
      "city": "Lisbon",
      "state": "",
      "country": "Portugal",
      "address": "",
      "address2": "",
      "zipcode": ""
    },
    "start": 1530648000,
    "end": 1530734400,
    "website": "",
    "isAttendee": 1,
    "isSponsor": 0,
    "isSpeaker": 0,
    "image": ""
  },
  {
    "title": "Blockchain Fintech",
    "location": {
      "city": "Dublin",
      "state": "",
      "country": "Ireland",
      "address": "",
      "address2": "",
      "zipcode": ""
    },
    "start": 1538496000,
    "end": 1538668800,
    "website": "https://blockchain.fintecnet.com",
    "isAttendee": 1,
    "isSponsor": 0,
    "isSpeaker": 0,
    "image": ""
  },
  {
    "title": "Women in Blockchain",
    "location": {
      "city": "New York",
      "state": "NY",
      "country": "USA",
      "address": "902 Broadway, 4th Floor",
      "address2": "GA NYC (Manhattan), HQ",
      "zipcode": "10010"
    },
    "start": 1530081135,
    "website": "https://generalassemb.ly/education/women-in/new-york-city/53238",
    "isAttendee": 0,
    "isSponsor": 0,
    "isSpeaker": 1,
    "image": ""
  },
  {
    "title": "4YFN Shanghai",
    "location": {
      "city": "Shanghai",
      "state": "",
      "country": "China",
      "address": "",
      "address2": "",
      "zipcode": ""
    },
    "start": 1530115200,
    "end": 1530288000,
    "website": "https://www.4yfn.com/event/4yfn-shanghai-2018/",
    "isAttendee": 1,
    "isSponsor": 1,
    "isSpeaker": 1,
    "image": ""
  },
  {
    "title": "Crypto Valley Conference",
    "location": {
      "city": "Zug",
      "state": "",
      "country": "Switzerland",
      "address": "",
      "address2": "",
      "zipcode": ""
    },
    "start": 1529510400,
    "end": 1529683200,
    "website": "https://www.cryptovalleyconference.com/",
    "isAttendee": 1,
    "isSponsor": 0,
    "isSpeaker": 0,
    "image": ""
  },
  {
    "title": "CES",
    "location": {
      "city": "Shanghai",
      "state": "",
      "country": "China",
      "address": "",
      "address2": "",
      "zipcode": ""
    },
    "start": 1528905600,
    "end": 1529078400,
    "website": "http://www.cesasia.cn/",
    "isAttendee": 0,
    "isSponsor": 1,
    "isSpeaker": 1,
    "image": "ces.png"
  },
  {
    "title": "Blockchain Funding Summit",
    "location": {
      "city": "San Mateo",
      "state": "CA",
      "country": "USA",
      "address": "",
      "address2": "",
      "zipcode": ""
    },
    "start": 1528300800,
    "end": 1528387200,
    "website": "",
    "isAttendee": 0,
    "isSponsor": 0,
    "isSpeaker": 1,
    "image": ""
  },
  {
    "title": "Propelify",
    "location": {
      "city": "Hoboken",
      "state": "NJ",
      "country": "USA",
      "address": "",
      "address2": "",
      "zipcode": ""
    },
    "start": 1526572800,
    "end": 0,
    "website": "",
    "isAttendee": 0,
    "isSponsor": 0,
    "isSpeaker": 1,
    "image": ""
  },
  {
    "title": "eSIM Technology & Innovation Summit",
    "location": {
      "city": "Beijing",
      "state": "",
      "country": "China",
      "address": "",
      "address2": "",
      "zipcode": ""
    },
    "start": 1527696000,
    "end": 0,
    "website": "",
    "isAttendee": 0,
    "isSponsor": 0,
    "isSpeaker": 1,
    "image": ""
  },
  {
    "title": "Consensus  - Decentral Jaxx Boat Event",
    "location": {
      "city": "New York",
      "state": "NY",
      "country": "USA",
      "address": "",
      "address2": "",
      "zipcode": ""
    },
    "start": 1526400000,
    "end": 0,
    "website": "",
    "isAttendee": 1,
    "isSponsor": 0,
    "isSpeaker": 0,
    "image": ""
  },
  {
    "title": "@Sree's Social Media Weekend",
    "location": {
      "city": "New York",
      "state": "NY",
      "country": "USA",
      "address": "Graduate School of Journalism",
      "address2": "West 40th St",
      "zipcode": "10018"
    },
    "start": 1527868800,
    "end": 1527955200,
    "website": "https://www.eventcombo.com/e/srees-social-media-weekend-smwknd-30530",
    "isAttendee": 0,
    "isSponsor": 0,
    "isSpeaker": 1,
    "image": ""
  },
  {
    "title": "TokenomX",
    "location": {
      "city": "Chiang Mai",
      "state": "",
      "country": "Thailand",
      "address": "",
      "address2": "",
      "zipcode": ""
    },
    "start": 1524067200,
    "end": 1524153600,
    "website": "https://tokenomx.com",
    "isAttendee": 1,
    "isSponsor": 0,
    "isSpeaker": 0,
    "image": ""
  },
  {
    "title": "ICS Cybersecurity Conference",
    "location": {
      "city": "London",
      "state": "",
      "country": "UK",
      "address": "",
      "address2": "",
      "zipcode": ""
    },
    "start": 1524585600,
    "end": 1524758400,
    "website": "",
    "isAttendee": 1,
    "isSponsor": 0,
    "isSpeaker": 0,
    "image": ""
  },
  {
    "title": "Georgetown FinTech & Digital Chamber of Commerce, hosting \"Token Revolution\"",
    "location": {
      "city": "Washington, D.C.",
      "state": "",
      "country": "USA",
      "address": "Georgetown University",
      "address2": "McDonough School of Business",
      "zipcode": ""
    },
    "start": 1523548800,
    "website": "",
    "isAttendee": 0,
    "isSponsor": 0,
    "isSpeaker": 1,
    "image": ""
  },
  {
    "title": "Women in Tech Social (CAMI)",
    "location": {
      "city": "Woodstock",
      "state": "MD",
      "country": "USA",
      "address": "",
      "address2": "",
      "zipcode": ""
    },
    "start": 1522944000,
    "website": "",
    "isAttendee": 1,
    "isSponsor": 0,
    "isSpeaker": 0,
    "image": "cyber-assoc-md.png"
  },
  {
    "title": "BCBon",
    "location": {
      "city": "Arlington",
      "state": "VA",
      "country": "USA",
      "address": "",
      "address2": "",
      "zipcode": ""
    },
    "start": 1524672000,
    "website": "",
    "isAttendee": 1,
    "isSponsor": 0,
    "isSpeaker": 0,
    "image": ""
  },
  {
    "title": "Telecom Council of Silicon Valley Innovators",
    "location": {
      "city": "Santa Clara",
      "state": "CA",
      "country": "USA",
      "address": "",
      "address2": "",
      "zipcode": ""
    },
    "start": 1527004800,
    "website": "https://www.telecomcouncil.com/innovation-showcase/",
    "isAttendee": 0,
    "isSponsor": 0,
    "isSpeaker": 1,
    "image": "telecom-council.png"
  },
  {
    "title": "Block2TheFuture",
    "location": {
      "city": "San Francisco",
      "state": "CA",
      "country": "USA",
      "address": "",
      "address2": "",
      "zipcode": ""
    },
    "start": 1522857600,
    "end": 1523030400,
    "website": "https://www.block2thefuture.com/",
    "isAttendee": 0,
    "isSponsor": 0,
    "isSpeaker": 1,
    "image": "block2future.png"
  },
  {
    "title": "Ragan PR & Media Relations Conference",
    "location": {
      "city": "New York",
      "state": "NY",
      "country": "USA",
      "address": "",
      "address2": "",
      "zipcode": ""
    },
    "start": 1522771200,
    "end": 1522944000,
    "website": "https://conferences.ragan.com/prmedrel/speakers/",
    "isAttendee": 0,
    "isSponsor": 0,
    "isSpeaker": 1,
    "image": "ragan.png"
  },
  {
    "title": "Santa Cruz New Tech Meetup",
    "location": {
      "city": "Santa Cruz",
      "state": "CA",
      "country": "USA",
      "address": "",
      "address2": "",
      "zipcode": ""
    },
    "start": 1522857600,
    "website": "https://www.meetup.com/Santa-Cruz-Bitcoin-and-Crypto-currency-Meetup/events/",
    "isAttendee": 0,
    "isSponsor": 0,
    "isSpeaker": 1,
    "image": ""
  },
  {
    "title": "BlockShow Europe Meetup in Amsterdam",
    "location": {
      "city": "Amsterdam",
      "state": "",
      "country": "Netherlands",
      "address": "",
      "address2": "",
      "zipcode": ""
    },
    "start": 1522425600,
    "website": "https://blockshoweurope.com/meetups/amsterdam/",
    "isAttendee": 1,
    "isSponsor": 0,
    "isSpeaker": 0,
    "image": "blockshow.png"
  },
  {
    "title": "CES 2018",
    "location": {
      "city": "Las Vegas",
      "state": "NV",
      "country": "USA",
      "address": "",
      "address2": "",
      "zipcode": ""
    },
    "start": 1515517200,
    "end": 1515776400,
    "website": "https://www.ces.tech/",
    "isAttendee": 0,
    "isSponsor": 1,
    "isSpeaker": 1,
    "image": "ces.png"
  },
  {
    "title": "World Crypto Economic Forum",
    "location": {
      "city": "San Francisco",
      "state": "CA",
      "country": "USA",
      "address": "",
      "address2": "",
      "zipcode": ""
    },
    "start": 1516035600,
    "end": 1516122000,
    "website": "http://wcef.co/",
    "isAttendee": 0,
    "isSponsor": 0,
    "isSpeaker": 1,
    "image": "world-crypto-economic-forum.png"
  },
  {
    "title": "North American Bitcoin Conference",
    "location": {
      "city": "Miami",
      "state": "FL",
      "country": "USA",
      "address": "",
      "address2": "",
      "zipcode": ""
    },
    "start": 1516294800,
    "end": 1516381200,
    "website": "https://btcmiami.com/",
    "isAttendee": 0,
    "isSponsor": 1,
    "isSpeaker": 1,
    "image": "north-american-bitcoin-conference.png"
  },
  {
    "title": "North American Bitcoin Conference",
    "location": {
      "city": "Miami",
      "state": "FL",
      "country": "USA",
      "address": "",
      "address2": "",
      "zipcode": ""
    },
    "start": 1547668800,
    "end": 1547841600,
    "website": "https://btcmiami.com/",
    "isAttendee": 1,
    "isSponsor": 1,
    "isSpeaker": 1,
    "image": "north-american-bitcoin-conference.png"
  },
  {
    "title": "Johns Hopkins APL Event",
    "location": {
      "state": "MD",
      "country": "USA",
      "address": "",
      "address2": "",
      "zipcode": ""
    },
    "start": 1516726800,
    "isAttendee": 0,
    "isSponsor": 0,
    "isSpeaker": 1
  },
  {
    "title": "Crypto in Frisco: Blockchain for Business",
    "location": {
      "city": "Frisco",
      "state": "TX",
      "country": "USA",
      "address": "",
      "address2": "",
      "zipcode": ""
    },
    "start": 1517072400,
    "isAttendee": 0,
    "isSponsor": 0,
    "isSpeaker": 1
  },
  {
    "title": "d10e Cayman Event",
    "location": {
      "city": "",
      "state": "",
      "country": "Grand Cayman Island",
      "address": "",
      "address2": "",
      "zipcode": ""
    },
    "start": 1517072400,
    "end": 1517331600,
    "website": "http://d10e.biz/cayman-islands-2018/",
    "isAttendee": 0,
    "isSponsor": 1,
    "isSpeaker": 0,
    "image": "d10e-cayman.png"
  },
  {
    "title": "d10e Lithuania Event",
    "location": {
      "city": "Vilnius",
      "state": "",
      "country": "Lithuania",
      "address": "",
      "address2": "",
      "zipcode": ""
    },
    "start": 1521907200,
    "end": 1522166400,
    "website": "http://d10e.biz/vilnius-2018/",
    "isAttendee": 1,
    "isSponsor": 0,
    "isSpeaker": 0,
    "image": "d10e-cayman.png"
  },
  {
    "title": "Blockchain Middle East Forum",
    "location": {
      "city": "Dubai",
      "state": "",
      "country": "UAE",
      "address": "",
      "address2": "",
      "zipcode": ""
    },
    "start": 1517850000,
    "end": 1517936400,
    "website": "https://blockchainme.iqpc.ae/",
    "isAttendee": 0,
    "isSponsor": 1,
    "isSpeaker": 1,
    "image": "blockchain-middle-east-forum.png"
  },
  {
    "title": "Blockchain Nation",
    "location": {
      "city": "Miami",
      "state": "FL",
      "country": "USA",
      "address": "",
      "address2": "",
      "zipcode": ""
    },
    "start": 1524672000,
    "end": 1524758400,
    "website": "https://www.bcnation.com/",
    "isAttendee": 0,
    "isSponsor": 0,
    "isSpeaker": 1,
    "image": "blockchain-nation.png"
  },
  {
    "title": "Bitcoin Super Conference",
    "location": {
      "city": "Dallas",
      "state": "TX",
      "country": "USA",
      "address": "",
      "address2": "",
      "zipcode": ""
    },
    "start": 1518800400,
    "end": 1518973200,
    "website": "https://www.bitcoinsuperconference.com/",
    "isAttendee": 0,
    "isSponsor": 1,
    "isSpeaker": 1
  },
  {
    "title": "Blockchain and Bitcoin",
    "location": {
      "city": "Geneva",
      "country": "CH",
      "address": "",
      "address2": "",
      "zipcode": ""
    },
    "start": 1519232400,
    "website": "https://switzerland.bc.events/",
    "isAttendee": 1,
    "isSponsor": 0,
    "isSpeaker": 0,
    "image": "blockchain-geneva.png"
  },
  {
    "title": "Peltz - Token, ICO Seminar",
    "location": {
      "city": "New York",
      "state": "NY",
      "country": "USA",
      "address": "",
      "address2": "",
      "zipcode": ""
    },
    "start": 1519318800,
    "isAttendee": 0,
    "isSponsor": 1,
    "isSpeaker": 1
  },
  {
    "title": "Mobile World Congress",
    "location": {
      "city": "Barcelona",
      "country": "Spain",
      "address": "",
      "address2": "",
      "zipcode": ""
    },
    "start": 1519664400,
    "end": 1519923600,
    "website": "https://www.mobileworldcongress.com/about/",
    "isAttendee": 1,
    "isSponsor": 0,
    "isSpeaker": 0,
    "image": "mobile-world-congress.png"
  },
  {
    "title": "4FYN/Mobile World Congress",
    "location": {
      "city": "Barcelona",
      "country": "Spain",
      "address": "",
      "address2": "",
      "zipcode": ""
    },
    "start": 1551124800,
    "end": 1551384000,
    "website": "https://www.mobileworldcongress.com/about/",
    "isAttendee": 1,
    "isSponsor": 1,
    "isSpeaker": 1,
    "image": "mobile-world-congress.png"
  },
  {
    "title": "Blockchain & Bitcoin",
    "location": {
      "city": "Istanbul",
      "country": "Turkey",
      "address": "",
      "address2": "",
      "zipcode": ""
    },
    "start": 1519923600,
    "website": "https://turkey.bc.events/#about-conf",
    "isAttendee": 1,
    "isSponsor": 0,
    "isSpeaker": 0,
    "image": "blockchain-istanbul.png"
  },
  {
    "title": "DC Blockchain Summit",
    "location": {
      "city": "Washington D.C.",
      "country": "USA",
      "address": "",
      "address2": "",
      "zipcode": ""
    },
    "start": 1520355600,
    "end": 1520528400,
    "website": "https://digitalchamber.org/dc-blockchain-summit-2018/",
    "isAttendee": 0,
    "isSponsor": 1,
    "isSpeaker": 1,
    "image": "chamber-digital-commerce.png"
  },
  {
    "title": "SXSW",
    "location": {
      "city": "Austin",
      "state": "TX",
      "country": "USA",
      "address": "",
      "address2": "",
      "zipcode": ""
    },
    "start": 1520614800,
    "end": 1520956800,
    "website": "https://www.sxsw.com/",
    "isAttendee": 0,
    "isSponsor": 0,
    "isSpeaker": 1,
    "image": "sxsw.png"
  },
  {
    "title": "TokenMarket 2018",
    "location": {
      "city": "Sunborn",
      "state": "",
      "country": "Gibraltar",
      "address": "",
      "address2": "",
      "zipcode": ""
    },
    "start": 1530201600,
    "end": 1530288000,
    "website": "https://tokenmarket.net/conference-2018/home",
    "isAttendee": 0,
    "isSponsor": 0,
    "isSpeaker": 1,
    "image": ""
  },
  {
    "title": "Token Fest",
    "location": {
      "address": "The Palace Of Fine Arts Theatre",
      "city": "San Francisco",
      "state": "CA",
      "country": "USA",
      "address2": "",
      "zipcode": ""
    },
    "start": 1521129600,
    "end": 1521216000,
    "website": "https://tokenfest.adria.digital/",
    "isAttendee": 0,
    "isSponsor": 1,
    "isSpeaker": 1,
    "image": "token-fest.png"
  },
  {
    "title": "WITS - Women in Tech Summit NE",
    "location": {
      "city": "Philadelphia",
      "state": "PA",
      "country": "USA",
      "address": "",
      "address2": "",
      "zipcode": ""
    },
    "start": 1523635200,
    "end": 1523721600,
    "website": "https://womenintechsummit.net/",
    "isAttendee": 0,
    "isSponsor": 0,
    "isSpeaker": 1,
    "image": "women-in-tech-summit.png"
  },
  {
    "title": "RSA Conference",
    "location": {
      "city": "San Francisco",
      "state": "CA",
      "country": "USA",
      "address": "Moscone Center",
      "address2": "",
      "zipcode": ""
    },
    "start": 1523894400,
    "website": "https://www.rsaconference.com/events/us18",
    "isAttendee": 1,
    "isSponsor": 0,
    "isSpeaker": 0,
    "image": "rsa.png"
  },
  {
    "title": "Blockchain Expo Global 2018",
    "location": {
      "city": "Olympia",
      "state": "London",
      "country": "UK",
      "address": "",
      "address2": "",
      "zipcode": ""
    },
    "start": 1524067200,
    "end": 1524153600,
    "website": "https://blockchain-expo.com/global/",
    "isAttendee": 0,
    "isSponsor": 1,
    "isSpeaker": 1,
    "image": "blockchain-expo-global.png"
  },
  {
    "title": "Chainges",
    "location": {
      "city": "Amsterdam",
      "state": "",
      "country": "Netherlands",
      "address": "",
      "address2": "",
      "zipcode": ""
    },
    "start": 1525449600,
    "end": 1525536000,
    "website": "https://chainges.co/",
    "isAttendee": 0,
    "isSponsor": 1,
    "isSpeaker": 1,
    "image": "chainges.png"
  },
  {
    "title": "Transformational CISO Assembly",
    "location": {
      "city": "Nashville",
      "state": "TN",
      "country": "USA",
      "address": "",
      "address2": "",
      "zipcode": ""
    },
    "start": 1525881600,
    "end": 1525968000,
    "website": "https://event.mill-all.com/transformational-ciso-5/",
    "isAttendee": 0,
    "isSponsor": 1,
    "isSpeaker": 1,
    "image": "transform.png"
  },
  {
    "title": "Transformational CISO Assembly",
    "location": {
      "city": "Miami",
      "state": "FL",
      "country": "USA",
      "address": "",
      "address2": "",
      "zipcode": ""
    },
    "start": 1542214800,
    "end": 1542301200,
    "website": "https://event.mill-all.com/transformational-ciso-6/",
    "isAttendee": 0,
    "isSponsor": 1,
    "isSpeaker": 1,
    "image": "transform.png"
  },
  {
    "title": "Bitcoin & Blockchain Fair 2018",
    "location": {
      "city": "Sydney",
      "state": "",
      "country": "Australia",
      "address": "",
      "address2": "",
      "zipcode": ""
    },
    "start": 1526140800,
    "website": "https://bitcoinandblockchainfair.com/",
    "isAttendee": 1,
    "isSponsor": 0,
    "isSpeaker": 0,
    "image": "bitcoin-blockchain-fair.png"
  },
  {
    "title": "Consensus 2018",
    "location": {
      "city": "New York",
      "state": "NY",
      "country": "USA",
      "address": "",
      "address2": "",
      "zipcode": ""
    },
    "start": 1526313600,
    "end": 1526486400,
    "website": "https://www.coindesk.com/events/consensus-2018/",
    "isAttendee": 1,
    "isSponsor": 0,
    "isSpeaker": 0,
    "image": "consensus.png"
  },
  {
    "title": "BlockShow Europe 2018",
    "location": {
      "city": "Berlin",
      "state": "",
      "country": "Germany",
      "address": "",
      "address2": "",
      "zipcode": ""
    },
    "start": 1527523200,
    "end": 1527609600,
    "website": "https://blockshoweurope.com/",
    "isAttendee": 1,
    "isSponsor": 0,
    "isSpeaker": 0,
    "image": "blockshow.png"
  },
  {
    "title": "Blockchain Expo Europe",
    "location": {
      "city": "Amsterdamn",
      "state": "",
      "country": "Netherlands",
      "address": "",
      "address2": "",
      "zipcode": ""
    },
    "start": 1530115200,
    "end": 1530201600,
    "website": "https://blockchain-expo.com/europe/",
    "isAttendee": 0,
    "isSponsor": 1,
    "isSpeaker": 0,
    "image": "blockchain-expo-eu.png"
  },
  {
    "title": "Blockchain Expo North America",
    "location": {
      "city": "Santa Clara",
      "state": "CA",
      "country": "USA",
      "address": "",
      "address2": "",
      "zipcode": ""
    },
    "start": 1543424400,
    "end": 1543510800,
    "website": "https://blockchain-expo.com/northamerica/",
    "isAttendee": 0,
    "isSponsor": 1,
    "isSpeaker": 1,
    "image": "blockchain-expo-na.png"
  }
]
